緯度,経度,施設名,ふりがな,住所,,区,電話番号　,施設情報,施設種別,0歳児,1歳児,2歳児,3歳児,4歳児,5歳児,月,指定園,新制度未移行園,ソート
34.693793,135.509984,大阪市立菅南幼稚園,おおさかしりつかんなんようちえん,北区菅原町１１-２,1,北区,06-6361-6005,http://www.ocec.ne.jp/yochien/kindergarden/kan-nan/index.html,幼稚園,,,,,,,,,,11101
34.696208,135.518755,大阪市立滝川幼稚園,おおさかしりつたきがわようちえん,北区天満１-２４-１５,1,北区,06-6351-4565,http://www.ocec.ne.jp/yochien/kindergarden/takigawa/index.html,幼稚園,,,,,,,,,,11102
34.697674,135.512868,大阪市立堀川幼稚園,おおさかしりつほりかわようちえん,北区東天満２-１０-７,1,北区,06-6351-2222,http://www.ocec.ne.jp/yochien/kindergarden/horikawa/index.html,幼稚園,,,,,,,,,,11103
34.703663,135.481961,大阪市立中大淀幼稚園,おおさかしりつなかおおよどようちえん,北区大淀中４-１０-２１,1,北区,06-6458-9300,http://www.ocec.ne.jp/yochien/kindergarden/nakaoyodo/index.html,幼稚園,,,,,,,,,,11104
34.695135,135.527744,大阪市立桜宮幼稚園,おおさかしりつさくらのみやようちえん,都島区東野田町１-２-５,2,都島区,06-6351-0190,http://www.ocec.ne.jp/yochien/kindergarden/sakuranomiya/index.html,幼稚園,,,,,,,,,,21105
34.690983,135.472788,大阪市立西野田幼稚園,おおさかしりつにしのだようちえん,福島区吉野３-１７-５,3,福島区,06-6461-1421,http://www.ocec.ne.jp/yochien/kindergarden/n-noda/index.html,幼稚園,,,,,,,,,,31106
34.698922,135.478699,大阪市立貫江田幼稚園,おおさかしりつぬきえだようちえん,福島区鷺州５-６-１８,3,福島区,06-6451-6898,http://www.ocec.ne.jp/yochien/kindergarden/nukieda/index.html,幼稚園,,,,,,,,,,31107
34.697912,135.469982,大阪市立海老江西幼稚園,おおさかしりつえびえいにしようちえん,福島区海老江８-１-２８,3,福島区,06-6451-1504,http://www.ocec.ne.jp/yochien/kindergarden/ebienishi/index.html,幼稚園,,,,,,,,,,31108
34.688482,135.451606,大阪市立伝法幼稚園,おおさかしりつでんぽうようちえん,此花区伝法４-４-３５,4,此花区,06-6461-0480,http://www.ocec.ne.jp/yochien/kindergarden/denpou/index.html,幼稚園,,,,,,,,,,41109
34.691204,135.502818,大阪市立愛珠幼稚園,おおさかしりつあいしゅようちえん,中央区今橋３-１-１１,5,中央区,06-6231-0481,http://www.ocec.ne.jp/yochien/kindergarden/aisyu/index.html,幼稚園,,,,,,,,,,51110
34.677792,135.518361,大阪市立銅座幼稚園,おおさかしりつどうざようちえん,中央区内久宝寺町１-１-４,5,中央区,06-6762-1172,http://www.ocec.ne.jp/yochien/kindergarden/douza/index.html,幼稚園,,,,,,,,,,51111
34.675833,135.530654,大阪市立玉造幼稚園,おおさかしりつたまつくりようちえん,中央区玉造１-９-１０,5,中央区,06-6761-6120,http://www.ocec.ne.jp/yochien/kindergarden/tamatukuri/index.html,幼稚園,,,,,,,,,,51112
34.684856,135.512128,大阪市立中大江幼稚園,おおさかしりつなかおおえようちえん,中央区南新町２-４-８,5,中央区,06-6941-5903,http://www.ocec.ne.jp/yochien/kindergarden/nakaooe/index.html,幼稚園,,,,,,,,,,51113
34.674831,135.516119,大阪市立桃園幼稚園,おおさかしりつとうえんようちえん,中央区谷町６-５-３４,5,中央区,06-6761-4908,http://www.ocec.ne.jp/yochien/kindergarden/touen/index.html,幼稚園,,,,,,,,,,51114
34.677101,135.502445,大阪市立南幼稚園,おおさかしりつみなみようちえん,中央区南船場３-２-１９,5,中央区,06-6251-2907,http://www.ocec.ne.jp/yochien/kindergarden/minami/index.html,幼稚園,,,,,,,,,,51115
34.675919,135.471782,大阪市立九条幼稚園,おおさかしりつくじょうようちえん,西区九条２-１９-１８,6,西区,06-6581-6185,http://www.ocec.ne.jp/yochien/kindergarden/kujo/index.html,幼稚園,,,,,,,,,,61116
34.683972,135.493974,大阪市立靱幼稚園,おおさかしりつうつぼようちえん,西区靱本町１-１９-１３,6,西区,06-6441-0644,http://www.ocec.ne.jp/yochien/kindergarden/utsubo/index.html,幼稚園,,,,,,,,,,61117
34.670514,135.482714,大阪市立日吉幼稚園,おおさかしりつひよしようちえん,西区南堀江４-８-２４,6,西区,06-6531-1409,http://www.ocec.ne.jp/yochien/kindergarden/hiyoshi/index.html,幼稚園,,,,,,,,,,61118
34.688626,135.494181,大阪市立西船場幼稚園,おおさかしりつにしせんばようちえん,西区江戸堀１-２１-３４,6,西区,06-6441-7101,http://www.ocec.ne.jp/yochien/kindergarden/n-senba/index.html,幼稚園,,,,,,,,,,61119
34.674981,135.489736,大阪市立堀江幼稚園,おおさかしりつほりえようちえん,西区北堀江３-２-３１,6,西区,06-6541-3800,http://www.ocec.ne.jp/yochien/kindergarden/horie/index.html,幼稚園,,,,,,,,,,61120
34.660309,135.455544,大阪市立三先幼稚園,おおさかしりつみさきようちえん,港区三先１-６-３７,7,港区,06-6572-7089,http://www.ocec.ne.jp/yochien/kindergarden/misaki/index.html,幼稚園,,,,,,,,,,71121
34.664512,135.476511,大阪市立三軒家西幼稚園,おおさかしりつさんげんやにしようちえん,大正区三軒家西１-２３-２３,8,大正区,06-6551-1749,http://www.ocec.ne.jp/yochien/kindergarden/sangenya-n/index.htm,幼稚園,,,,,,,,,,81122
34.649057,135.470036,大阪市立泉尾幼稚園,おおさかしりついずおようちえん,大正区千島３-１６-２,8,大正区,06-6551-0052,http://www.ocec.ne.jp/yochien/kindergarden/izuo/index.html,幼稚園,,,,,,,,,,81123
34.661326,135.521832,大阪市立五条幼稚園,おおさかしりつごじょうようちえん,天王寺区上之宮町４-４,9,天王寺区,06-6771-1820,http://www.ocec.ne.jp/yochien/kindergarden/gojo/index.html,幼稚園,,,,,,,,,,91124
34.670433,135.527065,大阪市立真田山幼稚園,おおさかしりつさなだやまようちえん,天王寺区餌差町６-１３,9,天王寺区,06-6761-3004,http://www.ocec.ne.jp/yochien/kindergarden/sanadayama/index.html,幼稚園,,,,,,,,,,91125
34.668965,135.526938,大阪市立味原幼稚園,おおさかしりつあじはらようちえん,天王寺区味原町５-１８,9,天王寺区,06-6762-0503,http://www.ocec.ne.jp/yochien/kindergarden/ajihara/index.html,幼稚園,,,,,,,,,,91126
34.656329,135.515279,大阪市立大江幼稚園,おおさかしりつおおえようちえん,天王寺区四天王寺１-１１-１０８,9,天王寺区,06-6771-4988,http://www.ocec.ne.jp/yochien/kindergarden/ooe/index.html,幼稚園,,,,,,,,,,91127
34.665659,135.513584,大阪市立生魂幼稚園,おおさかしりついくたまようちえん,天王寺区生玉町７-４,9,天王寺区,06-6771-9988,http://www.ocec.ne.jp/yochien/kindergarden/ikutama/index.html,幼稚園,,,,,,,,,,91128
34.658046,135.507908,大阪市立日東幼稚園,おおさかしりつにっとうようちえん,浪速区日本橋東３-２-９,10,浪速区,06-6641-0214,http://www.ocec.ne.jp/yochien/kindergarden/nitto/index.html,幼稚園,,,,,,,,,,101129
34.667084,135.484613,大阪市立立葉幼稚園,おおさかしりつたてばようちえん,浪速区桜川４-８-２１,10,浪速区,06-6561-7397,http://www.ocec.ne.jp/yochien/kindergarden/tateba/index.html,幼稚園,,,,,,,,,,101130
34.702426,135.456158,大阪市立姫島幼稚園,おおさかしりつひめじまようちえん,西淀川区姫島１-１３-７,11,西淀川区,06-6471-1010,http://www.ocec.ne.jp/yochien/kindergarden/himejima/index.html,幼稚園,,,,,,,,,,111132
34.715124,135.461911,大阪市立野里幼稚園,おおさかしりつのざとようちえん,西淀川区歌島２-５-２５,11,西淀川区,06-6471-1360,http://www.ocec.ne.jp/yochien/kindergarden/nozato/index.html,幼稚園,,,,,,,,,,111133
34.706689,135.444718,大阪市立大和田幼稚園,おおさかしりつおおわだようちえん,西淀川区大和田４-３-３５,11,西淀川区,06-6471-4203,http://www.ocec.ne.jp/yochien/kindergarden/oowada/index.html,幼稚園,,,,,,,,,,111134
34.729661,135.495053,大阪市立西中島幼稚園,おおさかしりつにしなかじまようちえん,淀川区西中島７-１４-４１,12,淀川区,06-6301-4772,http://www.ocec.ne.jp/yochien/kindergarden/n-nakajima/index.html,幼稚園,,,,,,,,,,121135
34.721302,135.473565,大阪市立田川幼稚園,おおさかしりつたがわようちえん,淀川区田川２-２-２６,12,淀川区,06-6301-1809,http://www.ocec.ne.jp/yochien/kindergarden/tagawa/index.html,幼稚園,,,,,,,,,,121136
34.732247,135.480107,大阪市立新高幼稚園,おおさかしりつにいたかようちえん,淀川区新高１-１５-６７,12,淀川区,06-6391-0404,http://www.ocec.ne.jp/yochien/kindergarden/niitaka/index.html,幼稚園,,,,,,,,,,121137
34.671763,135.543759,大阪市立今里幼稚園,おおさかしりついまざとようちえん,東成区大今里１-３７-７,14,東成区,06-6971-8317,http://www.ocec.ne.jp/yochien/kindergarden/imazato/index.html,幼稚園,,,,,,,,,,141138
34.676744,135.538947,大阪市立中本幼稚園,おおさかしりつなかもとようちえん,東成区中本４-２-４１,14,東成区,06-6971-8897,http://www.ocec.ne.jp/yochien/kindergarden/nakamoto/index.html,幼稚園,,,,,,,,,,141139
34.669696,135.533341,大阪市立東小橋幼稚園,おおさかしりつひがしおばせようちえん,東成区東小橋２-６-２,14,東成区,06-6971-8342,http://www.ocec.ne.jp/yochien/kindergarden/h-obase/index.html,幼稚園,,,,,,,,,,141140
34.680692,135.538075,大阪市立北中道幼稚園,おおさかしりつきたなかみちようちえん,東成区中道２-２-１９,14,東成区,06-6972-1956,http://www.ocec.ne.jp/yochien/kindergarden/k-nakamiti/index.htm,幼稚園,,,,,,,,,,141141
34.678516,135.545151,大阪市立東中本幼稚園,おおさかしりつひがしなかもとようちえん,東成区東中本２-９-３,14,東成区,06-6976-4466,http://www.ocec.ne.jp/yochien/kindergarden/h-nakamoto/index.html,幼稚園,,,,,,,,,,141142
34.659563,135.532748,大阪市立鶴橋幼稚園,おおさかしりつつるはしようちえん,生野区桃谷２-２０-１４,15,生野区,06-6731-6401,http://www.ocec.ne.jp/yochien/kindergarden/tsuruhashi/index.html,幼稚園,,,,,,,,,,151143
34.718941,135.564482,大阪市立旭東幼稚園,おおさかしりつきょくとうようちえん,旭区新森７-５-５,16,旭区,06-6953-3802,http://www.ocec.ne.jp/yochien/kindergarden/kyokutou/index.html,幼稚園,,,,,,,,,,161144
34.701268,135.547761,大阪市立鯰江幼稚園,おおさかしりつなまずえようちえん,城東区今福西３-７-１７,17,城東区,06-6931-2970,http://www.ocec.ne.jp/yochien/kindergarden/namazue/index.html,幼稚園,,,,,,,,,,171145
34.690476,135.547334,大阪市立城東幼稚園,おおさかしりつじょうとうようちえん,城東区鴫野東３-１３-６,17,城東区,06-6961-4664,http://www.ocec.ne.jp/yochien/kindergarden/joto/index.html,幼稚園,,,,,,,,,,171146
34.695687,135.568943,大阪市立榎本幼稚園,おおさかしりつえのもとようちえん,鶴見区今津北１-５-３５,18,鶴見区,06-6961-0751,http://www.ocec.ne.jp/yochien/kindergarden/enomoto/index.html,幼稚園,,,,,,,,,,181147
34.641417,135.516393,大阪市立常盤幼稚園,おおさかしりつときわようちえん,阿倍野区松崎町３-１１-３５,19,阿倍野区,06-6621-4413,http://www.ocec.ne.jp/yochien/kindergarden/tokiwa/index.html,幼稚園,,,,,,,,,,191148
34.619835,135.489846,大阪市立粉浜幼稚園,おおさかしりつこはまようちえん,住之江区粉浜１-２１-１１,20,住之江区,06-6671-4414,http://www.ocec.ne.jp/yochien/kindergarden/kohama/index.html,幼稚園,,,,,,,,,,201149
34.616981,135.496726,大阪市立住吉幼稚園,おおさかしりつすみよしようちえん,住吉区帝塚山西４-２-３７,21,住吉区,06-6671-4459,http://www.ocec.ne.jp/yochien/kindergarden/sumiyosi/index.html,幼稚園,,,,,,,,,,211150
34.607756,135.496029,大阪市立墨江幼稚園,おおさかしりつすみえようちえん,住吉区墨江２-３-１７,21,住吉区,06-6671-6516,http://www.ocec.ne.jp/yochien/kindergarden/sumie/index.html,幼稚園,,,,,,,,,,211151
34.607286,135.570825,大阪市立長吉幼稚園,おおさかしりつながよしようちえん,平野区長吉長原１-１０-３,23,平野区,06-6709-1000,http://www.ocec.ne.jp/yochien/kindergarden/nagayoshi/index.html,幼稚園,,,,,,,,,,231152
34.601919,135.552557,大阪市立瓜破幼稚園,おおさかしりつうりわりようちえん,平野区瓜破５-３-３４,23,平野区,06-6709-2300,http://www.ocec.ne.jp/yochien/kindergarden/uriwari/index.html,幼稚園,,,,,,,,,,231153
34.601713,135.578735,大阪市立長吉第二幼稚園,おおさかしりつながよしだいにようちえん,平野区長吉長原東３-１２-４７,23,平野区,06-6709-8781,http://www.ocec.ne.jp/yochien/kindergarden/nagayoshi2/index.html,幼稚園,,,,,,,,,,231154
34.604685,135.551331,大阪市立瓜破北幼稚園,おおさかしりつうりわりきたようちえん,平野区瓜破１-９-１２,23,平野区,06-6708-3027,http://www.ocec.ne.jp/yochien/kindergarden/uriwarikita/index.html,幼稚園,,,,,,,,,,231155
34.605996,135.586368,大阪市立六反幼稚園,おおさかしりつろくたんようちえん,平野区長吉六反５-３-３２,23,平野区,06-6707-0800,http://www.ocec.ne.jp/yochien/kindergarden/rokutan/index.html,幼稚園,,,,,,,,,,231156
34.640043,135.558583,大阪市立加美北幼稚園,おおさかしりつかみきたようちえん,平野区加美北４-１-１４,23,平野区,06-6793-1763,http://www.ocec.ne.jp/yochien/kindergarden/kamikita/index.html,幼稚園,,,,,,,,,,231157
34.624276,135.492344,大阪市立玉出幼稚園,おおさかしりつたまでようちえん,西成区玉出中２-１３-２９,24,西成区,06-6661-4446,http://www.ocec.ne.jp/yochien/kindergarden/tamade/index.html,幼稚園,,,,,,,,,,241158
34.637778,135.501554,大阪市立天下茶屋幼稚園,おおさかしりつてんがちゃやようちえん,西成区聖天下１-１０-３４,24,西成区,06-6661-5641,http://www.ocec.ne.jp/yochien/kindergarden/tengatyaya/index.html,幼稚園,,,,,,,,,,241159
34.714507,135.530833,高倉幼稚園,たかくらようちえん,都島区高倉町1丁目13-22,2,都島区,06-6921-1780,http://www.takakura-yochien.net/index.html,幼稚園,,,,,,,,,1,21306
34.723864,135.527561,淀川幼稚園,よどがわようちえん,都島区大東町2丁目5-28,2,都島区,06-6922-1214,http://www.yodgaw.org/index.html,幼稚園,,,,,,,,,1,21308
34.701286,135.532413,育生幼稚園,いくせいようちえん,都島区都島南通2丁目2-15,2,都島区,06-6929-0606,http://ikusei-youchien.ed.jp/index.html,幼稚園,,,,,,,,1,1,21305
34.704841,135.523396,都島中野幼稚園,みやこじまなかのようちえん,都島区中野町4丁目20-45,2,都島区,06-6351-4735,http://www.astok.ne.jp/daishiyo/miyakojima/index.html,幼稚園,,,,,,,,,1,21307
34.688809,135.482516,下福島幼稚園,しもふくしまようちえん,福島区玉川1丁目4-5,3,福島区,06-6447-1120,http://www.astok.ne.jp/daishiyo/shimofukushima/index.html,幼稚園,,,,,,,,,1,31311
34.694044,135.470889,大開幼稚園,おおひらきようちえん,福島区大開1丁目18-15,3,福島区,06-6461-2842,http://www.oohiraki.jp/index.html,幼稚園,,,,,,,,,1,31310
34.700029,135.485008,愛輝幼稚園,あいきようちえん,福島区福島7丁目19-16,3,福島区,06-6451-0320,http://homepage2.nifty.com/aikiyochien/index.html,幼稚園,,,,,,,,,1,31309
34.695153,135.486974,福島幼稚園,ふくしまようちえん,福島区福島2丁目8-1,3,福島区,06-6451-5907,http://www.tenmangu.com/baifuugakuen/info.html,幼稚園,,,,,,,,,1,31312
34.684117,135.464132,朝日橋幼稚園,あさひばしようちえん,此花区西九条5丁目4-40,4,此花区,06-6461-0877,http://asahibashi.info/index.html,幼稚園,,,,,,,,,1,41313
34.682033,135.449109,春日出幼稚園,かすがでようちえん,此花区春日出北2丁目8-24,4,此花区,06-6461-0077,http://kasugade.info/index.html,幼稚園,,,,,,,,,1,41314
34.681422,135.478501,川口聖マリア幼稚園,かわぐちせいまりあようちえん,西区川口3丁目5-31,6,西区,06-6581-6078,http://www.maria-youchien.ac.jp/index.html,幼稚園,,,,,,,,1,1,61318
34.672352,135.473667,福音幼稚園,ふくいんようちえん,西区九条南2丁目13-8,6,西区,06-6584-2469,http://fukuinyouchien.com/index.html,幼稚園,,,,,,,,,1,61319
34.668256,135.468759,文化幼稚園,ぶんかようちえん,港区市岡元町2丁目1-28,7,港区,06-6582-1340,http://www.bunka.ed.jp/index.html,幼稚園,,,,,,,,,1,71320
34.663557,135.463239,みなと幼稚園,みなとようちえん,港区市岡1丁目3-29,7,港区,06-6571-0395,http://www.minato-youchien.ac.jp/index.html,幼稚園,,,,,,,,,1,71321
34.638988,135.470926,南恩加島幼稚園,みなみおかじまようちえん,大正区平尾5丁目7-7,8,大正区,06-6551-2408,http://minamiokajima.la.coocan.jp/index.html,幼稚園,,,,,,,,1,1,81325
34.634408,135.472916,昭光幼稚園,しようこうようちえん,大正区南恩加島1丁目12-39,8,大正区,06-6551-5619,http://www.shoko.ed.jp/index.html,幼稚園,,,,,,,,,1,81323
34.653668,135.468432,北恩加島幼稚園,きたおかじまようちえん,大正区泉尾5丁目17-31,8,大正区,06-6551-2856,http://www.kitaokajimagakuen.ed.jp/index.html,幼稚園,,,,,,,,,1,81322
34.649935,135.518728,天王寺幼稚園,てんのうじようちえん,天王寺区北河堀町1-13,9,天王寺区,06-6771-0877,http://www.osaka.zaq.jp/yoshimigakuen/index.html,幼稚園,,,,,,,,,1,91326
34.666065,135.511521,パドマ幼稚園,ぱどまようちえん,天王寺区下寺町1丁目1-30,9,天王寺区,06-6772-1721,http://www.padoma.ne.jp/modules/contents/index.php?content_id=27,幼稚園,,,,,,,,,1,91327
34.660415,135.524278,大阪芸術大学附属松ヶ鼻幼稚園,おおさかげいじゅつだいがくふぞくまつがはなようちえん,天王寺区松ヶ鼻町4-4,9,天王寺区,06-6771-0076,http://www.kids.osaka-geidai.ac.jp/m/index.html,幼稚園,,,,,,,,,1,91329
34.661368,135.503762,日本橋幼稚園,にほんばしようちえん,浪速区難波中2丁目7-5,10,浪速区,06-6641-6401,http://www.ans.co.jp/k/nipponbashi/index.html,幼稚園,,,,,,,,,1,101330
34.718645,135.455235,御幣島幼稚園,みてじまようちえん,西淀川区御幣島4丁目15-23,11,西淀川区,06-6471-0173,http://www.miteshima.jp/index.html,幼稚園,,,,,,,,,1,111332
34.722869,135.490415,大阪東邦幼稚園,おおさかとうほうようちえん,淀川区木川西2丁目1-19,12,淀川区,06-6301-4581,http://www.osakatoho.ed.jp/boshuu/index.html,幼稚園,,,,,,,,,1,121334
34.721963,135.475684,博愛社学園幼稚園,はくあいしやがくえんようちえん,淀川区十三元今里3丁目1-72,12,淀川区,06-6302-2095,http://hakuaisha.com/index.html,幼稚園,,,,,,,,1,1,121337
34.712651,135.472943,塚本幼稚園幼児教育学園,つかもとようちえんようじきょういくがくえん,淀川区塚本1丁目6-25,12,淀川区,06-6301-2166,http://www.tukamotoyouchien.ed.jp/index.html,幼稚園,,,,,,,,1,1,121336
34.739949,135.486187,みくにひじり幼稚園,みくにひじりようちえん,淀川区西三国3丁目17-32,12,淀川区,06-6392-2525,http://www.mikunihijiri.ed.jp/enter.php,幼稚園,,,,,,,,1,1,121339
34.714796,135.474748,ひかり幼稚園,ひかりようちえん,淀川区新北野3丁目10-4,12,淀川区,06-6301-6288,http://www.hikarik.ed.jp/index.html,幼稚園,,,,,,,,1,1,121338
34.723665,135.489707,木川幼稚園,きがわようちえん,淀川区木川西2丁目8-4,12,淀川区,06-6301-6090,http://hanshiyo.or.jp/yodogawa.html,幼稚園,,,,,,,,,1,121335
34.726842,135.474828,みつや・めぐみ幼稚園,みつやめぐみようちえん,淀川区三津屋南1丁目16-33,12,淀川区,06-6309-2581,http://m-megumi.jp/index.html,幼稚園,,,,,,,,,1,121340
34.726024,135.485493,アケミ幼稚園,あけみようちえん,淀川区野中南1丁目1-3,12,淀川区,06-6302-6878,http://akemikids.jp/index.html,幼稚園,,,,,,,,,1,121333
34.737927,135.517967,淡路幼稚園,あわじようちえん,東淀川区東淡路4丁目12-25,13,東淀川区,06-6321-0271,http://www.awaji-k.ed.jp/index.html,幼稚園,,,,,,,,1,1,131341
34.738196,135.538936,豊里幼稚園,とよさとようちえん,東淀川区豊里2丁目6-10,13,東淀川区,06-6320-2030,http://www.oohashigakuen.ac.jp/Toyosato/Index.htm,幼稚園,,,,,,,,,1,131347
34.737749,135.529109,菅原天満幼稚園,すがわらてんまようちえん,東淀川区菅原2丁目3-27,13,東淀川区,06-6328-6079,http://www.astok.ne.jp/daishiyo/sugahara/index.html,幼稚園,,,,,,,,1,1,131346
34.748824,135.533674,美鳩幼稚園,みはとようちえん,東淀川区瑞光1丁目11-10,13,東淀川区,06-6328-6169,http://www.mihato.ed.jp/index.html,幼稚園,,,,,,,,1,1,131348
34.752125,135.538266,小松幼稚園,こまつようちえん,東淀川区小松3丁目5-15,13,東淀川区,06-6320-1331,http://www.komatu-kindergarten.ed.jp/index.html,幼稚園,,,,,,,,1,1,131342
34.752497,135.547572,瑞光幼稚園,ずいこうようちえん,東淀川区瑞光4丁目6-7,13,東淀川区,06-6329-6858,http://zuiko-youchien.com/index.html,幼稚園,,,,,,,,1,1,131344
34.759891,135.545167,瑞光第二幼稚園,ずいこうだいにようちえん,東淀川区北江口2丁目15-13,13,東淀川区,06-6340-2585,http://www.astok.ne.jp/daishiyo/zuiko2/index.html,幼稚園,,,,,,,,1,1,131345
34.767856,135.549936,大阪成蹊短期大学附属こみち幼稚園,おおさかせいけいたんきだいがくふぞくこみちようちえん,東淀川区井高野4丁目8-8,13,東淀川区,06-6829-2598,http://komichi.osaka-seikei.ac.jp/abouts/recomme.html,幼稚園,,,,,,,,,1,131343
34.665604,135.546968,聖美幼稚園,せいびようちえん,東成区大今里南2丁目13-22,14,東成区,06-6981-8438,http://www.kuriokagakuen.ac.jp/seibi/index.html,幼稚園,,,,,,,,,1,141349
34.668483,135.548839,熊野幼稚園,くまのようちえん,東成区大今里4丁目16-23,14,東成区,06-6971-0381,http://www2.kumano.ed.jp/~kumano/index.html,幼稚園,,,,,,,,,1,141350
34.650784,135.537421,第一すみれ幼稚園,だいいちすみれようちえん,生野区舎利寺1丁目5-28,15,生野区,06-6712-0747,http://www.astok.ne.jp/daishiyo/1sumire/index.html,幼稚園,,,,,,,,,1,151352
34.660878,135.531034,桃谷幼稚園,ももだにようちえん,生野区桃谷2丁目12-29,15,生野区,06-6731-7260,http://www.astok.ne.jp/daishiyo/momodani/index.html,幼稚園,,,,,,,,,1,151355
34.653774,135.549735,白菊幼稚園,しらぎくようちえん,生野区巽北2丁目5-24,15,生野区,06-6752-4515,http://www.shiragiku-kids.jp/index.html,幼稚園,,,,,,,,1,1,151351
34.658879,135.545768,中川幼稚園,なかがわようちえん,生野区中川3丁目7-18,15,生野区,06-6751-6660,http://nakagawayouchien.ed.jp/index.html,幼稚園,,,,,,,,,1,151354
34.726092,135.543367,大宮幼稚園,おおみやようちえん,旭区中宮3丁目15-10,16,旭区,06-6951-6041,http://www2.ohmiya-k.ed.jp/~ohmiyak/index.html,幼稚園,,,,,,,,,1,161359
34.719931,135.552613,新森幼稚園,しんもりようちえん,旭区新森3丁目3-35,16,旭区,06-6954-5344,http://www.shinmori.com/contents/enter.html,幼稚園,,,,,,,,,1,161360
34.716888,135.545325,東高殿幼稚園,ひがしたかどのようちえん,旭区高殿6丁目6-17,16,旭区,06-6951-7321,http://www.takadono.ac.jp/top/index.html,幼稚園,,,,,,,,,1,161363
34.728425,135.530283,赤川幼稚園,あかがわようちえん,旭区赤川4丁目22-31,16,旭区,06-6921-0004,http://www2.odn.ne.jp/akagawa-kinder/kosodate/index_kosodate.html,幼稚園,,,,,,,,,1,161356
34.714772,135.542061,西高殿若葉幼稚園,にしたかどのわかばようちえん,旭区高殿4丁目6-12,16,旭区,06-6951-5205,http://www.wakabakids.ed.jp/index.html,幼稚園,,,,,,,,,1,161362
34.729961,135.551347,あけのほし幼稚園,あけのほしようちえん,旭区太子橋1丁目1-27,16,旭区,06-6951-2633,http://www.akenohoshikg.jp/index.html,幼稚園,,,,,,,,,1,161357
34.724166,135.556427,千寿幼稚園,せんじゆようちえん,旭区清水3丁目3-16,16,旭区,06-6951-1729,http://www.senju-k.jp/index.html,幼稚園,,,,,,,,,1,161361
34.684667,135.543276,中浜幼稚園,なかはまようちえん,城東区中浜2丁目11-41,17,城東区,06-6962-0995,http://www2.nakahama.ed.jp/~nakahama/index.html,幼稚園,,,,,,,,,1,171367
34.708155,135.541846,野江幼稚園,のえようちえん,城東区成育3丁目4-20,17,城東区,06-6933-0071,http://noeyouchien.ed.jp/about/index.html,幼稚園,,,,,,,,,1,171368
34.698887,135.545282,蒲生幼稚園,がもうようちえん,城東区蒲生4丁目13-9,17,城東区,06-6931-6695,http://www.gamo.ed.jp/index.html,幼稚園,,,,,,,,,1,171365
34.693894,135.539266,全愛幼稚園,ぜんあいようちえん,城東区鴫野西3丁目6-2,17,城東区,06-6961-1627,http://www.astok.ne.jp/daishiyo/zennai/index.html,幼稚園,,,,,,,,,1,171366
34.711178,135.557781,大阪信愛女学院幼稚園,おおさかしんあいじよがくいんようちえん,城東区古市2丁目7-30,17,城東区,06-6939-4391,http://kinder.osaka-shinai.ac.jp/index.html,幼稚園,,,,,,,,,1,171364
34.713753,135.564334,念法幼稚園,ねんぽうようちえん,鶴見区緑3丁目3-18,18,鶴見区,06-6911-3158,http://www.nenpougakuen.com/index.html,幼稚園,,,,,,,,,1,181373
34.691662,135.576804,三愛幼稚園,さんあいようちえん,鶴見区今津中4丁目3-13,18,鶴見区,06-6968-1981,http://sanaiyouchien.jp/index.html,幼稚園,,,,,,,,1,1,181370
34.703544,135.561756,鶴見幼稚園,つるみようちえん,鶴見区鶴見4丁目9-17,18,鶴見区,06-6931-3368,http://www.tsurumi-k.ed.jp/index.html,幼稚園,,,,,,,,1,1,181371
34.699978,135.562253,鶴見菊水幼稚園,つるみきくすいようちえん,鶴見区鶴見2丁目5-15,18,鶴見区,06-6912-0360,http://www.ans.co.jp/k/tsurumikikusui/index.html,幼稚園,,,,,,,,,1,181372
34.631056,135.502515,赤橋幼稚園,あかはしようちえん,阿倍野区相生通2丁目6-2,19,阿倍野区,06-6661-7418,http://www.akahashi.ac.jp/bosyuu/index.html,幼稚園,,,,,,,,,1,191375
34.629796,135.519158,長池昭和幼稚園,ながいけしようわようちえん,阿倍野区桃ヶ池町1丁目11-29,19,阿倍野区,06-6621-0773,http://www.nagaikesyowa.net/1/index.html,幼稚園,,,,,,,,,1,191383
34.645603,135.509056,金塚幼稚園,かなづかようちえん,阿倍野区旭町1丁目4-46,19,阿倍野区,06-6641-9945,http://www.kanazuka.ac.jp/index.html,幼稚園,,,,,,,,1,1,191379
34.635031,135.522046,文の里幼稚園,ふみのさとようちえん,阿倍野区文の里3丁目15-28,19,阿倍野区,06-6629-2323,http://www.fuminosato.jp/index.html,幼稚園,,,,,,,,,1,191384
34.628149,135.499757,阿部野学園幼稚園,あべのがくえんようちえん,阿倍野区北畠3丁目7-5,19,阿倍野区,06-6651-8649,http://abeno.abeno.ed.jp/index.html,幼稚園,,,,,,,,1,1,191378
34.617698,135.515808,鶴ヶ丘幼稚園,つるがおかようちえん,阿倍野区西田辺町2丁目2-10,19,阿倍野区,06-6691-1067,http://www.tsurugaoka.ed.jp/index.html,幼稚園,,,,,,,,1,1,191382
34.632996,135.510202,松虫幼稚園,まつむしようちえん,阿倍野区王子町2丁目5-13,19,阿倍野区,06-6621-9115,http://www.astok.ne.jp/daishiyo/matsumushi/index.html,幼稚園,,,,,,,,,1,191385
34.628922,135.511795,むつみ幼稚園,むつみようちえん,阿倍野区阪南町3丁目22-8,19,阿倍野区,06-6624-0557,http://mutsumi.ed.jp/index.html,幼稚園,,,,,,,,1,1,191387
34.641781,135.525171,あべの翔学高等学校附属朝陽幼稚園,あべのしょうがくこうとうがっこうふぞくちょうようようちえん,阿倍野区天王寺町南2丁目26-3,19,阿倍野区,06-6719-2710,http://choyogakuin.jp/abeno-shogaku.fuzoku.cs/index.html,幼稚園,,,,,,,,,1,191376
34.633334,135.503652,朝陽幼稚園,ちようようようちえん,阿倍野区橋本町6-16,19,阿倍野区,06-6661-2996,http://choyogakuin.jp/choyo.cs/index.html,幼稚園,,,,,,,,,1,191377
34.636984,135.506728,聖愛幼稚園,せいあいようちえん,阿倍野区丸山通1丁目3-61,19,阿倍野区,06-6651-8039,http://www.seiai-kindergarten.jp/index.html,幼稚園,,,,,,,,1,1,191381
34.626015,135.518018,グレース幼稚園,ぐれ-すようちえん,阿倍野区昭和町4丁目3-19,19,阿倍野区,06-6622-1008,http://www.grace-kindergarten.jp/index.html,幼稚園,,,,,,,,1,1,191380
34.614043,135.478887,加賀幼稚園,かがようちえん,住之江区中加賀屋4丁目4-81,20,住之江区,06-6681-2169,http://www.kinder-kaga.com/index.html,幼稚園,,,,,,,,,1,201389
34.628823,135.428952,南港幼稚園,なんこうようちえん,住之江区南港中2丁目5-55,20,住之江区,06-6613-0900,http://www2.nanko.ed.jp/~nanko/index.html,幼稚園,,,,,,,,,1,201392
34.617394,135.479332,中かがや幼稚園,なかかがやようちえん,住之江区中加賀屋2丁目18-5,20,住之江区,06-6685-5525,http://www.nakakagaya.ed.jp/index.html,幼稚園,,,,,,,,,1,201391
34.627593,135.426031,アスール幼稚園,あす-るようちえん,住之江区南港中3丁目7-1,20,住之江区,06-6614-0700,http://www.ans.co.jp/k/azul/index.html,幼稚園,,,,,,,,,1,201388
34.601378,135.478359,大和幼稚園,やまとようちえん,住之江区北島3丁目3-11,20,住之江区,06-6681-1717,http://hanshiyo.or.jp/suminoe.html,幼稚園,,,,,,,,,1,201393
34.602766,135.504446,あびこ幼稚園,あびこようちえん,住吉区南住吉4丁目1-25,21,住吉区,06-6691-0029,http://www.eonet.ne.jp/~abiko/index.html,幼稚園,,,,,,,,,1,211395
34.603475,135.491153,清水幼稚園,しみずようちえん,住吉区清水丘1丁目24-10,21,住吉区,06-6673-4567,http://www.kinder-shimizu.com/index.html,幼稚園,,,,,,,,,1,211398
34.600629,135.499197,遠里小野幼稚園,おりおのようちえん,住吉区遠里小野1丁目2-25,21,住吉区,06-6691-3663,http://www.kinder-oriono.com/index.html,幼稚園,,,,,,,,,1,211396
34.607696,135.517103,長居幼稚園,ながいようちえん,住吉区長居東3丁目8-32,21,住吉区,06-6691-0190,http://www.ans.co.jp/k/nagai/index.html,幼稚園,,,,,,,,1,1,211400
34.601289,135.514346,ひまわり幼稚園,ひまわりようちえん,住吉区苅田5丁目17-25,21,住吉区,06-6697-4701,http://www2.himawari.gr.jp/~o-himawa/index.html,幼稚園,,,,,,,,,1,211402
34.619784,135.493717,東粉浜幼稚園,ひがしこはまようちえん,住吉区東粉浜2丁目11-14,21,住吉区,06-6671-7875,http://www.higashikohama-youchien.ed.jp/index.html,幼稚園,,,,,,,,,1,211401
34.603559,135.508303,よさみ幼稚園,よさみようちえん,住吉区我孫子2丁目10-5,21,住吉区,06-6691-3601,http://yosami.ed.jp/index.html,幼稚園,,,,,,,,,1,211404
34.608868,135.507627,愛児幼稚園,あいじようちえん,住吉区長居西3丁目1-14,21,住吉区,06-6691-0502,http://www.ans.co.jp/k/aijiyouchien/index.html,幼稚園,,,,,,,,,1,211394
34.619895,135.499693,帝塚山学院幼稚園,てづかやまがくいんようちえん,住吉区帝塚山中3丁目9-2,21,住吉区,06-6672-1151,http://www.tezukayama.ac.jp/kinder_garten/index.html,幼稚園,,,,,,,,,1,211399
34.604994,135.527435,プール幼稚園,ぷ-るようちえん,東住吉区矢田3丁目2-18,22,東住吉区,06-6698-7700,http://www.poole-kdg.com/index.html,幼稚園,,,,,,,,,1,221413
34.629639,135.526303,二葉幼稚園,ふたばようちえん,東住吉区北田辺6丁目14-26,22,東住吉区,06-6622-1571,http://www.futabayouchien.jp/index.html,幼稚園,,,,,,,,,1,221414
34.628858,135.531431,さつき幼稚園,さつきようちえん,東住吉区西今川2丁目4-12,22,東住吉区,06-6702-3780,http://www.satuki.ed.jp/index.html,幼稚園,,,,,,,,1,1,221407
34.637015,135.537056,第二すみれ幼稚園,だいにすみれようちえん,東住吉区杭全2丁目11-23,22,東住吉区,06-6713-0431,http://www.astok.ne.jp/daishiyo/2sumire/index.html,幼稚園,,,,,,,,,1,221409
34.623095,135.526274,平和幼稚園,へいわようちえん,東住吉区田辺4丁目13-9,22,東住吉区,06-6621-8838,http://www.oct.zaq.ne.jp/heiwa/index.html,幼稚園,,,,,,,,1,1,221415
34.616259,135.534739,中野幼稚園,なかのようちえん,東住吉区湯里1丁目13-6,22,東住吉区,06-6702-0032,http://nakanokids.jp/index.html,幼稚園,,,,,,,,1,1,221412
34.626262,135.521743,田辺幼稚園,たなべようちえん,東住吉区山坂1丁目19-24,22,東住吉区,06-6622-1788,http://www.ans.co.jp/k/tanabe/index.htm,幼稚園,,,,,,,,,1,221410
34.608617,135.532799,大阪芸術大学附属照ヶ丘幼稚園,おおさかげいだいふぞく てるがおかようちえん,東住吉区矢田2丁目18-16,22,東住吉区,06-6697-0913,http://www.kids.osaka-geidai.ac.jp/t/index.html,幼稚園,,,,,,,,,1,221411
34.610381,135.539097,城南学園幼稚園,じようなんがくえんようちえん,東住吉区湯里6丁目4-26,22,東住吉区,06-6702-5200,http://www.jonan.jp/youchien/index.html,幼稚園,,,,,,,,,1,221408
34.61116,135.562207,喜連東幼稚園,きれひがしようちえん,平野区喜連東5丁目1-63,23,平野区,06-6709-1587,http://kire-k.jp/about.php?id=3,幼稚園,,,,,,,,1,1,231417
34.613694,135.555614,喜連幼稚園,きれようちえん,平野区喜連6丁目2-2,23,平野区,06-6709-1885,http://kire-k.jp/index.html,幼稚園,,,,,,,,1,1,231416
34.628743,135.549134,西平野幼稚園,にしひらのようちえん,平野区平野上町1丁目2-2,23,平野区,06-6791-3939,http://www.nishihirano.com/index.html,幼稚園,,,,,,,,,1,231420
34.623349,135.554217,光源寺幼稚園,こうげんじようちえん,平野区平野本町4丁目11-5,23,平野区,06-6793-5005,http://www.kougenji-youchien.jp/index.html,幼稚園,,,,,,,,,1,231418
34.716639,135.513023,大淀幼稚園,おおよどようちえん,北区長柄西2丁目5-22,1,北区,06-6354-1972,http://www.astok.ne.jp/daishiyo/oyodo/index.html,幼稚園,,,,,,,,,1,11303
34.703756,135.504955,扇町同胞幼稚園,おおぎまちどうほうようちえん,北区神山町9-19,1,北区,06-6361-1235,http://www.astok.ne.jp/daishiyo/dobo/index.html,幼稚園,,,,,,,,,1,11301
34.710792,135.494141,中津相愛幼稚園,なかつそうあいようちえん,北区中津3丁目6-15,1,北区,06-6371-0412,http://www.nakatsusouai.jp/index.html,幼稚園,,,,,,,,,1,11304
34.701502,135.513525,太成学院天満幼稚園,たいせいがくいんてんまようちえん,北区与力町4-16,1,北区,06-6353-9580,http://www.tgu.ac.jp/temma_kg/index.html,幼稚園,,,,,,,,,1,11302
34.678323,135.512463,中央なにわ幼稚園,ちゆうおうなにわようちえん,中央区粉川町7-6,5,中央区,06-6761-3377,http://www.astok.ne.jp/daishiyo/c-naniwa/index.html,幼稚園,,,,,,,,,1,51317
34.678689,135.527955,城星学園幼稚園,じようせいがくえんようちえん,中央区玉造2丁目23-26,5,中央区,06-6941-5977,http://www.josei.ed.jp/html-k/index.html,幼稚園,,,,,,,,,1,51316
34.681025,135.455439,梅香幼稚園,ばいかようちえん,此花区梅香3丁目3-6,4,此花区,06-6461-1339,http://www.osaka-baika.com/index.html,幼稚園,,,,,,,,,,41315
34.656717,135.520512,真生幼稚園,しんせいようちえん,天王寺区真法院町15-15,9,天王寺区,06-6771-0153,http://www.k4.dion.ne.jp/~tenno-ji/shinsei/about.html,幼稚園,,,,,,,,1,,91328
34.713687,135.446041,佃幼稚園,つくだようちえん,西淀川区佃2丁目8-2,11,西淀川区,06-6471-3579,http://tsukuda-kinder.com/wordpress/index.html,幼稚園,,,,,,,,1,,111331
34.724457,135.534044,旭学園幼稚園,あさひがくえんようちえん,旭区赤川2丁目12-8,16,旭区,06-6928-5775,http://www.asahigakuen.ed.jp/index.html,幼稚園,,,,,,,,,,161358
34.690278,135.556296,放出幼稚園,はなてんようちえん,城東区放出西3丁目5-16,17,城東区,06-6961-4110,http://www.hanaten.ed.jp/index.html,幼稚園,,,,,,,,,,171369
34.701943,135.576873,諸口幼稚園,もろぐちようちえん,鶴見区諸口3丁目3-66,18,鶴見区,06-6911-3198,http://www.astok.ne.jp/daishiyo/moroguchi/index.html,幼稚園,,,,,,,,,,181374
34.635382,135.515496,南大阪幼稚園,みなみおおさかようちえん,阿倍野区阪南町1丁目30-5,19,阿倍野区,06-6622-2013,http://www.h5.dion.ne.jp/~mokinder/index.html,幼稚園,,,,,,,,,,191386
34.596891,135.498843,建国幼稚園,けんこくようちえん,住吉区遠里小野2丁目3-13,21,住吉区,06-6691-1231,http://www.astok.ne.jp/daishiyo/kenkoku/index.html,幼稚園,,,,,,,,,,211397
34.631189,135.489841,岸の里幼稚園,きしのさとようちえん,西成区千本南1丁目10-26,24,西成区,06-6661-7396,http://www.kishinosato-kg.net/link,幼稚園,,,,,,,,,,241422
34.618176,135.549357,大阪教育大学附属幼稚園,おおさかきょういくだいがくふぞくようちえん,平野区流町2丁目1-79,23,平野区,06-6709-9400,http://www.fuzoku-k.oku.ed.jp/index.html,幼稚園,,,,,,,,,1,231401